{"status":"Success","returnType":19,"origin":{"cityName":"南京市","listType":0,"results":[{"name":"南京师范大学(随园校区)","address":"宁海路122号南京师范大学随园校区(近五台山体育馆北门)","telephone":"(025)83598010","location":{"lng":118.769108,"lat":32.053549}},{"name":"南京师范大学紫金校区","address":"南京市玄武区板仓街78号","telephone":"(025)85481074","location":{"lng":118.821489,"lat":32.071797}},{"name":"南京师范大学(商学院)","address":"杨家坟","telephone":"","location":{"lng":118.744683,"lat":31.924527}},{"name":"南京师范大学医院","address":"南京市鼓楼区","telephone":"","location":{"lng":118.76635,"lat":32.053867}},{"name":"南京师大自学考试办公室","address":"宁海路122","telephone":"","location":{"lng":118.76877,"lat":32.054465}},{"name":"南京师大劳动服务公司","address":"板仓街78号","telephone":"","location":{"lng":118.822609,"lat":32.071724}},{"name":"南京师大教师培训中心","address":"宁海路122","telephone":"","location":{"lng":118.77013,"lat":32.052474}},{"name":"南京师范大学美术学院陶瓷艺术研究所","address":"南京师范大学美术学院附近","telephone":"","location":{"lng":118.77077,"lat":32.052959}},{"name":"南京师大mba教育中心","address":"宁海路122","telephone":"(025)83598010","location":{"lng":118.770299,"lat":32.051798}},{"name":"南京师范大学出版社","address":"宁海路122-1","telephone":"(025)83598297","location":{"lng":118.77161,"lat":32.054596}},{"name":"南京师范大学","address":"近郊栖霞区文苑路1号南京师范大学仙林校区(近学海路)","telephone":"(025)85891111","location":{"lng":118.910537,"lat":32.100842}},{"name":"南京师范大学(南京师范大学茶苑西北)","address":"南京师范大学茶苑附近","telephone":"","location":{"lng":118.897494,"lat":32.100124}},{"name":"南京师大文化产业研究院","address":"宁海路122号","telephone":"","location":{"lng":118.76677,"lat":32.053416}},{"name":"南京师大动画教学实验室","address":"文苑路1号","telephone":"(025)85891111","location":{"lng":118.912939,"lat":32.103668}},{"name":"南京师大动感地带品牌店","address":"文苑路1号","telephone":"","location":{"lng":118.91386,"lat":32.113734}},{"name":"南京师大文教资料杂志社","address":"宁海路122号","telephone":"","location":{"lng":118.76677,"lat":32.053416}},{"name":"南京师大数理化图书馆","address":"文苑路1号","telephone":"(025)85898807","location":{"lng":118.911319,"lat":32.10137}},{"name":"南京师大实验动物中心","address":"文苑路1号","telephone":"(025)85891111","location":{"lng":118.916389,"lat":32.116474}},{"name":"南京师大老年学研究中心","address":"宁海路122","telephone":"","location":{"lng":118.77001,"lat":32.052155}},{"name":"南京师大(紫金校区)-南门","address":"板仓街78","telephone":"(025)85412341","location":{"lng":118.82176,"lat":32.070845}},{"name":"南京师大国际经济研究中心","address":"宁海路122","telephone":"","location":{"lng":118.77013,"lat":32.052474}},{"name":"南京师大幼儿教育发展中心","address":"宁海路128号南山专家楼7层","telephone":"","location":{"lng":118.7685,"lat":32.052734}},{"name":"南京师大中国经济研究中心","address":"宁海路122","telephone":"","location":{"lng":118.77013,"lat":32.052474}},{"name":"南京师大南师教育培训中心","address":"龙蟠中路317号","telephone":"(025)84868258","location":{"lng":118.801839,"lat":32.030413}},{"name":"南京师范大学图书情报管理研究所","address":"宁海路122号南京师范大学随园校区华夏图书馆1层","telephone":"(025)83598010","location":{"lng":118.77013,"lat":32.052474}},{"name":"南京师大老年体育工作者协会","address":"宁海路122","telephone":"","location":{"lng":118.77034,"lat":32.054443}},{"name":"南京师范大学环境科学研究所","address":"南京师范大学法学院附近","telephone":"","location":{"lng":118.770299,"lat":32.051798}},{"name":"南京师范大学社会发展学院","address":"宁海路","telephone":"","location":{"lng":118.77013,"lat":32.052474}},{"name":"南京师大(仙林校区)-3号门","address":"文苑路3号","telephone":"(025)85891111","location":{"lng":118.906749,"lat":32.098174}},{"name":"南京师大出版社·两江培训","address":"南京市鼓楼区","telephone":"(025)83283232","location":{"lng":118.771009,"lat":32.054668}},{"name":"南京师范大学后宰门学区","address":"后宰门西村9号","telephone":"(025)84804071","location":{"lng":118.819099,"lat":32.046478}},{"name":"南京师大学生社团联合会紫金分会","address":"板仓街78号","telephone":"","location":{"lng":118.82045,"lat":32.072399}},{"name":"南京师大(仙林校区)-1号主校门","address":"文范路1","telephone":"(025)85891111","location":{"lng":118.91263,"lat":32.10009}},{"name":"南京师范大学中北学院(学林路)","address":"南京仙林大学城学林路2号","telephone":"(025)85898048","location":{"lng":118.91,"lat":32.115897}},{"name":"南京师大认知科学研究中心","address":"宁海路122号","telephone":"","location":{"lng":118.76596,"lat":32.052589}},{"name":"南京师范大学国际健身中心","address":"宁海路122号南京师范大学随园校区操场西侧体育馆2楼","telephone":"(025)83704511","location":{"lng":118.76596,"lat":32.052589}},{"name":"南京师范大学乳品生物技术研究所","address":"宁海路122号附近","telephone":"","location":{"lng":118.76987,"lat":32.051729}},{"name":"南京师大计算机科学与技术学院","address":"宁海路122","telephone":"(025)83598010","location":{"lng":118.769119,"lat":32.052845}},{"name":"南京师大社会工作研究与发展中心","address":"宁海路122","telephone":"","location":{"lng":118.77013,"lat":32.052474}},{"name":"南京师大音乐教育研究所","address":"宁海路122","telephone":"","location":{"lng":118.770819,"lat":32.052675}},{"name":"南京师范大学公共管理学院","address":"宁海路122号附近","telephone":"(025)83598010","location":{"lng":118.770093,"lat":32.052528}},{"name":"南京师范大学金陵营养与资源研究所","address":"宁海路122号附近","telephone":"","location":{"lng":118.77013,"lat":32.052474}},{"name":"南京师范大学附属扬子中学(水榭花苑东)","address":"杨村路146号","telephone":"","location":{"lng":118.761261,"lat":32.239044}},{"name":"师豪高校实业有限公司南京师范大学后勤实业中心","address":"文苑路1","telephone":"","location":{"lng":118.905975,"lat":32.09959}},{"name":"金门驾校（南京师范大学仙林校区报名处）","address":"南京师范大学仙林校区内","telephone":"(025)66167606,18013893689","location":{"lng":118.907957,"lat":32.101946}},{"name":"南京师大紫金校区学生第二餐厅","address":"南京玄武区板仓街78号(近南师大紫金校区)","telephone":"(025)85768899","location":{"lng":118.82188,"lat":32.070801}},{"name":"南京师大科技实业集团公司物联网包装应用材料研究所","address":"宁海路122","telephone":"","location":{"lng":118.76762,"lat":32.052635}},{"name":"南京师范大学生命科学学院遗传资源研究所","address":"南京师范大学随园校区28号楼","telephone":"(025)86083183","location":{"lng":118.76597,"lat":32.052482}},{"name":"南京师范大学法学院","address":"宁海路122南京师范大学逸夫楼","telephone":"(025)83598010","location":{"lng":118.77013,"lat":32.052474}},{"name":"南京师范大学文学院","address":"南京师范大学随园校区中大楼","telephone":"(025)83598450","location":{"lng":118.767394,"lat":32.053465}}]},"destination":{"cityName":"北京市","listType":0,"results":[{"name":"中国政法大学","address":"314路;314路;345快;345快;357路;357路;357区间;357区间;870路;870路;881路;881路;884路;884路;888快;888快;888路;888路;922路;922路;925路;925路;h63路;h63路;昌11路;昌11路;昌16路","telephone":"","location":{"lng":116.2454,"lat":40.22107}},{"name":"中国政法大学(学院路校区)","address":"海淀区西土城路25号","telephone":"(010)58909114","location":{"lng":116.35152,"lat":39.965765}},{"name":"中国政法大学(昌平校区)","address":"北京市昌平区府学路27号","telephone":"(010)58909162","location":{"lng":116.247581,"lat":40.222819}},{"name":"中国政法大学-东门","address":"北京市海淀区西土城路25号","telephone":"010-58909114","location":{"lng":116.352981,"lat":39.96501}},{"name":"中国政法大学-南门","address":"北京市海淀区西土城路25号","telephone":"010-58909114","location":{"lng":116.35172,"lat":39.964043}},{"name":"中国政法大学-北门","address":"北京市海淀区西土城路25号","telephone":"010-58909114","location":{"lng":116.351851,"lat":39.967012}},{"name":"中国政法大学校医院","address":"昌平区府学路","telephone":"(010)58909114","location":{"lng":116.35016,"lat":39.966345}},{"name":"中国政法大学医院","address":"东关路","telephone":"(010)58909228","location":{"lng":116.24755,"lat":40.225229}},{"name":"中国政法大学研究生院","address":"北京市海淀区西土城路25号法大培训区606室","telephone":"010-58908070","location":{"lng":116.350171,"lat":39.966718}},{"name":"中国政法大学司法考试学院","address":"北京市海淀区西土城路25号","telephone":"","location":{"lng":116.353025,"lat":39.964802}},{"name":"中国政法大学出版社","address":"北京市海淀区西土城路25号院5号楼","telephone":"010-58908302","location":{"lng":116.3528,"lat":39.966415}},{"name":"中国政法大学留学_政法大学","address":"北京市海淀区西土城路25号中国政法大学","telephone":"4006887125","location":{"lng":116.35299,"lat":39.96503}},{"name":"中国政法大学中国法律信息中心","address":"北京市海淀区","telephone":"","location":{"lng":116.350176,"lat":39.966103}},{"name":"中国政法大学-停车场","address":"西土城路25号附近","telephone":"","location":{"lng":116.35299,"lat":39.965037}},{"name":"中国政法大学第一食堂","address":"中国政法大学内","telephone":"(010)58909239","location":{"lng":116.24807,"lat":40.222604}},{"name":"中国政法大学篮球场","address":"北京市昌平区","telephone":"","location":{"lng":116.247862,"lat":40.224597}},{"name":"中国政法大学-停车场","address":"西土城路辅路附近","telephone":"","location":{"lng":116.352593,"lat":39.965035}},{"name":"中国政法大学门诊部","address":"北京市海淀区西土城路25号","telephone":"","location":{"lng":116.35299,"lat":39.96503}},{"name":"中国政法大学第二食堂","address":"中国政法大学内","telephone":"(010)58909239","location":{"lng":116.24921,"lat":40.222576}},{"name":"中国政法大学教育基金会","address":"北京市昌平区府学路27号中国政法大学发展规划与学科建设处","telephone":"","location":{"lng":116.246447,"lat":40.221373}},{"name":"中国政法大学第三食堂","address":"中国政法大学内","telephone":"(010)58909239","location":{"lng":116.24803,"lat":40.225124}},{"name":"中国政法大学斋8号楼","address":"北京市昌平区","telephone":"","location":{"lng":116.244152,"lat":40.228174}},{"name":"中国政法大学网球场","address":"北京市昌平区","telephone":"","location":{"lng":116.247584,"lat":40.224478}},{"name":"中国政法大学斋3号楼","address":"北京市昌平区","telephone":"","location":{"lng":116.244572,"lat":40.227643}},{"name":"中国政法大学斋5号楼","address":"北京市昌平区","telephone":"","location":{"lng":116.244692,"lat":40.228068}},{"name":"中国政法大学一食堂","address":"昌平区府学路27号","telephone":"","location":{"lng":116.246447,"lat":40.221373}},{"name":"中国政法大学医院-急诊","address":"北京市昌平区","telephone":"(010)58909227","location":{"lng":116.247419,"lat":40.225225}},{"name":"中国政法大学劳动法诊所","address":"北京市海淀区西土城路25号学院路中国政法大学正门南侧北京教育工会","telephone":"(010)62228839,(010)62260586","location":{"lng":116.35299,"lat":39.96503}},{"name":"中国政法大学6号楼","address":"北京市海淀区","telephone":"","location":{"lng":116.352694,"lat":39.964343}},{"name":"中国政法大学家属宿舍1号楼","address":"北京市昌平区","telephone":"","location":{"lng":116.24682,"lat":40.227473}},{"name":"中国政法大学家属宿舍12号楼","address":"北京市昌平区","telephone":"","location":{"lng":116.24928,"lat":40.226237}},{"name":"中国政法大学学生公寓9号楼","address":"北京市昌平区","telephone":"","location":{"lng":116.245863,"lat":40.22528}},{"name":"中国政法大学家属宿舍3号楼","address":"北京市昌平区","telephone":"","location":{"lng":116.246737,"lat":40.226751}},{"name":"中国政法大学留学服务中心","address":"昌平校区,昌平区府学路27号中国政法大学国际交流中心a座116室","telephone":"(010)58909583","location":{"lng":116.24506,"lat":40.223043}},{"name":"中国政法大学家属宿舍9号楼","address":"北京市昌平区","telephone":"","location":{"lng":116.249571,"lat":40.22785}},{"name":"中国政法大学(昌平校区)-东门","address":"北京市昌平区","telephone":"","location":{"lng":116.25006,"lat":40.223015}},{"name":"中国政法大学(昌平校区)-南门","address":"府学路27号","telephone":"(010)58909162","location":{"lng":116.24646,"lat":40.221283}},{"name":"中国政法大学停车场-出入口","address":"西土城路25号","telephone":"","location":{"lng":116.352873,"lat":39.965059}},{"name":"中国政法大学家属宿舍4号楼","address":"北京市昌平区","telephone":"","location":{"lng":116.24683,"lat":40.226392}},{"name":"中国政法大学家属宿舍11号楼","address":"北京市昌平区","telephone":"","location":{"lng":116.24957,"lat":40.22681}},{"name":"中国政法大学家属宿舍6号楼","address":"北京市昌平区","telephone":"","location":{"lng":116.248435,"lat":40.227595}},{"name":"中国政法大学家属宿舍10号楼","address":"北京市昌平区","telephone":"","location":{"lng":116.249542,"lat":40.227493}},{"name":"中国政法大学家属宿舍2号楼","address":"北京市昌平区","telephone":"","location":{"lng":116.246713,"lat":40.22711}},{"name":"中国政法大学家属宿舍5号楼","address":"北京市昌平区","telephone":"","location":{"lng":116.246904,"lat":40.226012}},{"name":"中国政法大学家属宿舍8号楼","address":"北京市昌平区","telephone":"","location":{"lng":116.246667,"lat":40.227806}},{"name":"中国政法大学家属宿舍7号楼","address":"北京市昌平区","telephone":"","location":{"lng":116.24796,"lat":40.227315}},{"name":"中国政法大学-继续教育学院","address":"西土城路25中国政法大学","telephone":"","location":{"lng":116.350621,"lat":39.966797}},{"name":"中国政法大学(昌平校区)-北门","address":"县城东关路","telephone":"","location":{"lng":116.24768,"lat":40.224745}},{"name":"中国政法大学运输服务中心","address":"北三环西路辅路明光北里(北二门)附近","telephone":"","location":{"lng":116.351644,"lat":39.967015}},{"name":"中国政法大学国际交流中心","address":"东关路5号院13号","telephone":"(010)59915588","location":{"lng":116.248219,"lat":40.225258}}]}}
